{"dealers":[{"name":"MR. MARSUK","lat":"6.936697","lng":"79.8508339","address":"NO. 106 , 1ST CROSS STREET,COLOMBO 11.","phone":"011 - 2423728","city":"COLOMBO"},{"name":"MR.RANJAN","lat":"7.0928812","lng":"79.994663","address":"MANGALA ROAD,GAMPAHA.","phone":"033 - 2225259","city":"GAMPAHA"},{"name":"MR. NISSANKA","lat":"6.8729147","lng":"79.8914526","address":"NO. 29, SUPER MARKET,NUGEGODA.","phone":"011 - 5628239","city":"NUGEGODA."},{"name":"MS.PRIYADARSHANI","lat":"6.706874","lng":"79.9085884","address":"NO.169, GALLE ROADKALUTARA.","phone":"034 - 2222561","city":"KALUTARA"},{"name":"MR.ANANDAN","lat":"7.0661319","lng":"80.5984317","address":"NO.506,N-ELIYA ROAD,PUSSELLAWA.","phone":"081 - 2478252","city":"PUSSELLAWA"},{"name":"MR.PRIYADARSHANA","lat":"6.9540221","lng":"80.2107389","address":"NO.16A,COLOMBO ROAD,AVISSAWELLA.","phone":"036 - 5675640","city":"AVISSAWELLA"},{"name":"MR.KAPILA","lat":"7.9306474","lng":"81.032735","address":"MAIN STREET,KADURUWELA.","phone":"027 2222145","city":"KADURUWELA."},{"name":"MR. SUNIL","lat":"6.94153285","lng":"79.8540366228431","address":"NO .50, KAMMALTHOTA,KOCHCHIKADE.","phone":"0777 - 279265","city":"KOCHCHIKADE."},{"name":"MR. AMEER","lat":"6.9393273","lng":"79.8525151","address":"NO: 09CHINA STREET,COLOMBO 11.","phone":"112329271","city":"COLOMBO"},{"name":"MR.HASHIM","lat":"6.9393273","lng":"79.8525151","address":"NO.10,CHINA STREET,COLOMBO 11.","phone":"011 - 2324567","city":"COLOMBO"},{"name":"MR.PERERA","lat":"7.0028965","lng":"79.9550933","address":"NO.86,KANDY ROAD,KADAWATHA.","phone":"011 - 2925325","city":"KADAWATHA"},{"name":"MR.MICHAEL","lat":"7.0478181","lng":"79.896959","address":"NO.26,MAIN STREET,KANDANA.","phone":"011 - 2239920","city":"KANDANA"},{"name":"MR.RAMYASIRI","lat":"6.8465001","lng":"79.9276204","address":"NO.03, HIGH LEVEL ROAD,MAHARAGAMA.","phone":"011 - 2850255","city":"MAHARAGAMA"},{"name":"MR.NANDASIRI","lat":"6.8433037","lng":"80.0034918","address":"NO.30, STATION ROAD,HOMAGAMA.","phone":"011 - 2748532","city":"COLOMBO"},{"name":"MR.RIZWAN/ MR. MOBARAK","lat":"6.6803691","lng":"80.4022975","address":"NO.105,MAIN STREET,RATHNAPURA","phone":"045 - 2222059","city":"RATNAPURA"},{"name":"MRS.LINIKA","lat":"6.8018439","lng":"79.9227034","address":"NO. 15/1, YMBA BUILDING,PILIYANDALA.","phone":"011 - 2615446","city":"PILIYANDALA"},{"name":"MR. CHANDIKA","lat":"6.3340647","lng":"80.8538325","address":"MAIN STREET,EMBILIPITIYA.","phone":"047 - 2261157","city":"EMBILIPITIYA"},{"name":"MR.BANDARA","lat":"6.8694343","lng":"79.8894412","address":"NO.16, HIGH LEVEL ROAD,NUGEGODA.","phone":"011 - 2825268","city":"NUGEGODA"},{"name":"MR.BAGASRAWALA","lat":"6.9898202","lng":"81.0569425","address":"NO.08,BAZZAR STREET,BADULLA.","phone":"055 - 2222296","city":"BADULLA"},{"name":"MR.WIJESURIYA","lat":"6.8306703","lng":"80.9894924","address":"NO.40,MAIN STREET,BANDARAWELA.","phone":"057 - 2222566","city":"BANDARAWELA"},{"name":"MR.JAYANTHA","lat":"6.9738157","lng":"80.7670673","address":"NO.06,MODEL MARKET,MAIN STREET,N-ELIYA.","phone":"052 - 2222466","city":"N-ELIYA"},{"name":"MR.JANITH","lat":"7.2944808","lng":"80.635635","address":"COLOMBO STREETKANDY","phone":"066 - 2223250","city":"KANDY"},{"name":"MR. MOHAN","lat":"7.2944808","lng":"80.635635","address":"NO. 56,COLOMBO STREET,KANDY.","phone":"081 - 2224441","city":"KANDY."},{"name":"MR. PATHIRANA","lat":"7.2909946","lng":"81.6756629","address":"D. S. SENANAYAKE STREET,AMPARA.","phone":"632222463","city":"AMPARA"},{"name":"MR.WIJESURIYA","lat":"6.2353731","lng":"80.0543611","address":"NO.10, STATION ROAD,AMBALANGODA","phone":"091 - 2258152","city":"AMBALANGODA"},{"name":"MR. SHAMIEEN","lat":"5.9461235","lng":"80.5527437","address":"OLD TANGALLE ROAD,MATARA.","phone":"041 - 2229536","city":"MATARA"},{"name":"MR.A.W.A.NIFFAR","lat":"7.2090206","lng":"79.8404418","address":"NO.11,SUPER MARKET,NEGOMBO.","phone":"031 - 2233435","city":"NEGOMBO"},{"name":"MR.U.B. WEERAKOON","lat":"6.975632","lng":"79.9247203","address":"NO.89/89A, KANDY ROAD,KIRIBATHGODA.","phone":"112910101","city":"KIRIBATHGODA"},{"name":"MR. JUDE FERNANDO","lat":"7.4642259","lng":"79.8274594","address":"COLOMBO ROAD,MAHAWAWA","phone":"322254304","city":"MAHAWAWA"},{"name":"MR.V.KUMARASINGHA","lat":"7.8774361","lng":"80.0109326","address":"NO:55,PUTLAM ROAD,ANAMADUWA","phone":"032/2263536","city":"ANAMADUWA"},{"name":"MR. JANAKA","lat":"6.3340647","lng":"80.8538325","address":"MAIN STREET,EMBILIPITIYA","phone":"047 - 2230072","city":"EMBILIPITIYA"},{"name":"NO NAME","lat":"8.7558362","lng":"80.5005386","address":"NO : 29, DHARMALINGAM ROAD,VAUNIYA","phone":"24222283","city":"VAUNIYA"},{"name":"MR.SILVA","lat":"6.906808","lng":"80.9204461","address":"NO.50,BADULLA ROAD,WELIMADA.","phone":"057 - 2244506","city":"WELIMADA."},{"name":"NO.84,BANK SIDE,","lat":"8.3354139","lng":"80.4080552","address":"ANURADHAPURA.","phone":"025 - 2222640","city":"ANURADHAPURA."},{"name":"MR.THASLIM","lat":"8.0408145","lng":"80.5971595","address":"ANURADHAPURA ROAD,KEKIRAWA.","phone":"025 - 2263284","city":"KEKIRAWA."},{"name":"MR. LALITH","lat":"6.1118528","lng":"81.0518284976946","address":"MAIN STREET,AMBALANTHOTA.","phone":"047 - 2223298","city":"AMBALANTHOTA"},{"name":"MR.PIYARATHNA","lat":"7.33618005","lng":"80.3002929652516","address":"KURUNEGALA ROAD,GODAWELA,POLGAHAWELA.","phone":"037 - 2243358","city":"POLGAHAWELA."},{"name":"MR.HUSALEEN","lat":"7.3668465","lng":"80.1488431","address":"NO.19,PARAKUMBA STREET,KURUNEGALA.","phone":"374922997","city":"KURUNEGALA"},{"name":"MR. A. ATHUKORALA","lat":"7.2532249","lng":"80.3461307","address":"KANDY ROADKEGALLE","phone":"035 - 2222419","city":"KEGALLE."},{"name":"MR. DANASIRI","lat":"7.4621612","lng":"80.0790652","address":"NO. 212 , MADAMPA ROAD,KULIYAPITIYA.","phone":"037 - 2283067","city":"KULIYAPITIYA"},{"name":"MR.ROHAN RANASINGHA","lat":"6.9341161","lng":"79.84478","address":"NO.40,YORK STREET,COLOMBO 01.","phone":"011 - 2427500","city":"COLOMBO"},{"name":"MR. CHANDIMAL","lat":"5.9450134","lng":"80.5425121","address":"NO. 05, WILFRED GUNASEKARA MAWATHA,MATARA.","phone":"041 - 2223638","city":"MATARA"},{"name":"MR.DHARMASIRI","lat":"6.0346306","lng":"80.2122467","address":"NO. 34, KALUWELLA,GALLE.","phone":"091 - 2234422","city":"GALLE"},{"name":"MR.KUMARA - (K MART KADUWELLA)","lat":"6.9367085","lng":"79.9838148","address":"NO.66, NEW KANDY ROAD,KADUWELA.","phone":"011 - 2539862","city":"KADUWELA"},{"name":"MR.LIYANAGE.","lat":"6.5959174","lng":"80.4575962","address":"NO.05,KALAWANA ROAD,NIWITHIGALA.","phone":"045 - 2279901","city":"NIWITHIGALA."},{"name":"MR.ARUMUGAN","lat":"7.2274041","lng":"79.8512158","address":"NO. 133, DALUPOTHA,NEGOMBO.","phone":"060 - 2313919","city":"NEGOMBO"},{"name":"MS.HETTIARACHCHI","lat":"6.8720197","lng":"79.8618219","address":"(MARKET MAKERS (PVT) LTD)292,GALLE ROAD,COLOMBO 03.","phone":"011 2565621","city":"COLOMBO"},{"name":"MRS. SAKUNTHALA","lat":"6.8975578","lng":"79.8519591","address":"NO. 696 ,GALLE ROAD,COLOMBO 3.","phone":"011 - 2589349","city":"COLOMBO"},{"name":"NO NAME","lat":"6.8649414","lng":"79.8843627","address":"NO: 44,GREEN PATH,COLOMBO 03.","phone":"011 2575365","city":"COLOMBO"},{"name":"MR. KARUNARATHNA","lat":"7.9294123","lng":"80.2927174","address":"NO: 17EHETUWEWA ROAD,AMBANPOLA","phone":"372253113","city":"AMBANPOLA"},{"name":"MR.ROY","lat":"6.9885664","lng":"81.0662546","address":"NO 24,MAIN STREET,HANWELLA.","phone":"036 2255736","city":"HANWELLA"},{"name":"MR. ASHLY TUDER JAYASINGHE.","lat":"7.4879684","lng":"80.3626066","address":"NO: 03,ST. ANNE'S STREET,KURUNEGALA.","phone":"037/2225687","city":"KURUNEGALA"},{"name":"W.M.GUNASEKERA","lat":"6.8436971","lng":"80.8983797","address":"NO:59,NUWARA ELIYA ROAD,WELIMADA.","phone":"057-2245120","city":"WELIMADA"},{"name":"NO NAME","lat":"6.8783592","lng":"79.8581413","address":"ART OF LIVING,33 1/3, FLAZA COMPLEX,GALLE ROAD,COLOMBO 06.","phone":"4510711 / 0777416690","city":"COLOMBO 06"},{"name":"MR.LUXMAN PREARATHNA","lat":"7.6198111","lng":"80.2461477","address":"NO.05,KURUNEGALA ROAD,WARIYAPOLA.","phone":"037-2268447","city":"WARIYAPOLA."},{"name":"M.M.P.SUSIL FERNANDO","lat":"7.3788846","lng":"79.8292257","address":"CHILAW ROAD,KATUNERIYA.","phone":"031-2256199","city":"KATUNERIYA"},{"name":"MR.H.R.DE SILVA","lat":"6.9465986","lng":"80.2127463","address":"NO.57,RATHNAPURA ROAD,AVISSAWELLA.","phone":"036-2222321","city":"AVISSAWELLA"},{"name":"MR.STANLEY SIRIMANNA","lat":"6.8744332","lng":"79.8591763","address":"NO.239,GALLE ROAD,DEHIWALA.","phone":"0112-712568","city":"DEHIWALA"},{"name":"M.M.M.MILFER","lat":"6.9018582","lng":"79.8526949","address":"NO.401/A,R.A.DEMEL MAWATHA,COLOMBO 03.","phone":"011-5553575","city":"DEHIWALA"},{"name":"SHIRAMA K. AMARASEKARA","lat":"6.868847","lng":"79.8849143","address":"157,S.D.S.JAYASINGHA MAWATHANUGEGODA.","phone":"011- 2826390","city":"COLOMBO"},{"name":"MR.M.S.M.MANEER","lat":"7.1260389","lng":"80.0684667","address":"NO.110,KANDY ROAD,TIHARIYA,KAlngEDIHENA.","phone":"033-2287130","city":"KAlngEDIHENA"},{"name":"MR.A.MOHANRAJ","lat":"6.8767556","lng":"79.8584347","address":"NO.89,GALLE ROAD,WELLAWATTA,COLOMBO - 06","phone":"011-2553294","city":"COLOMBO"},{"name":"MS. M.J.TIDAKSHI LAKMINI","lat":"7.093794","lng":"79.8854743","address":"NO: 625,NEGOMBO ROAD,MABOLE,WATTALA.","phone":"115353443","city":"WATTALA"},{"name":"UPALE PREMATHILAKA","lat":"7.3200776","lng":"79.9643881","address":"KURUNEGALA ROAD,SANDA LANKAWA.","phone":"072 6076013","city":"SANDA LANKAWA"},{"name":"J.M.NIHAL","lat":"7.1117076","lng":"80.0496289","address":"NO: 03,KANDY ROAD,NITTAMBUWA.","phone":"337210850","city":"NITTAMBUWA"},{"name":"MR.UPUL","lat":"6.8941972","lng":"80.5936432","address":"NO:119DIMBULLA ROAD,HATTON.","phone":"512225068","city":"HATTON"},{"name":"MR.LALITH PERERA","lat":"6.8751257","lng":"79.899238","address":"NO: 03, OLD KOTTAWA ROAD,JUBILEE POST,MIRIHANA,NUGEGODA.","phone":"112820375","city":"NUGEGODA"},{"name":"MR.DADLEY DE SILVA","lat":"6.7929603","lng":"79.8763518","address":"NO: 04KATUBEDDA SHOPPING COMPLEX,GALLE ROAD,MORATUWA.","phone":"112611580","city":"MORATUWA"},{"name":"NO NAME","lat":"6.8854817","lng":"79.854017","address":"NO: 36,MELBOURNE AVENUE,COLOMBO 04.","phone":"112590291","city":"COLOMBO"},{"name":"MR. T.D.C. PUSHPAKUMARA","lat":"6.9609608","lng":"79.9935794","address":"NO: 831/B,NEW KANDY ROAD,MALABE.","phone":"114911060","city":"MALABE"},{"name":"MS. SRIMATHI","lat":"6.8772464","lng":"79.9899292","address":"NO: 55MAIN STREET,ATHURUGIRIYA","phone":"112560625","city":"ATHURUGIRIYA"},{"name":"MR.R.B.M. WIJESINGHE","lat":"6.6479256","lng":"80.7014023","address":"NO: 22,MAIN STREET,BALANGODA.","phone":"452287217","city":"BALANGODA"},{"name":"NO NAME","lat":"6.6235845","lng":"80.5430483","address":"NO: 64,MAIN STREET,PELMADULLA.","phone":"452274828","city":"PELMADULLA"},{"name":"MS.DARMALATHA","lat":"6.9207123","lng":"79.8699143","address":"NO: 993,MARADANA ROAD,COLOMBO 03.","phone":"112667668","city":"COLOMBO"},{"name":"L.A.K. DE SILVA","lat":"6.9035915","lng":"79.8498787","address":"NO: 146,GALLE ROAD,WLLAWATTA.","phone":"773431655","city":"COLOMBO"}]}